City_ID,City,Lat,Lng,Max Temp,Humidity,Cloudiness,Wind Speed,Country,Date
0,edinburgh of the seven seas,-37.0676,-12.3116,12.77,73,25,4.19,SH,1698061544
1,angaur state,6.906,134.13,28.89,73,56,1.87,PW,1698061545
2,hermanus,-34.4187,19.2345,19.16,71,40,10.92,ZA,1698061545
3,stanley,54.868,-1.6985,9.87,93,40,1.03,GB,1698061546
4,birjand,32.8663,59.2211,26.26,13,40,3.09,IR,1698061546
5,leava,-14.3,-178.1667,26.72,85,55,8.04,WF,1698061547
6,blackmans bay,-43.0167,147.3167,11.96,86,35,0.45,AU,1698061548
7,avarua,-21.2078,-159.775,25.03,94,75,2.06,CK,1698061548
8,serhetabat,35.2799,62.3438,22.35,27,13,5.4,TM,1698061549
9,taulaga,-11.0553,-171.0883,27.52,78,41,3.99,AS,1698061549
10,taltal,-25.4,-70.4833,17.51,71,73,0.41,CL,1698061550
11,dalnegorsk,44.5604,135.5701,4.11,66,0,1.65,RU,1698061551
12,tazovsky,67.4667,78.7,-2.79,82,86,3.96,RU,1698061551
13,selibaby,15.159,-12.1829,34.45,29,100,3.02,MR,1698061552
14,grytviken,-54.2811,-36.5092,-2.66,63,17,6.76,GS,1698061553
15,dazuocun,24.8862,118.9643,22.56,83,60,10.36,CN,1698061554
16,bethel,41.3712,-73.414,7.42,81,0,1.54,US,1698061554
17,wailua homesteads,22.0669,-159.378,23.44,92,75,6.17,US,1698061555
18,albany,42.6001,-73.9662,6.95,80,100,3.13,US,1698061524
19,sirre,8.3167,39.4833,25.13,45,61,4.97,ET,1698061556
20,ust-nera,64.5667,143.2,-12.26,97,98,2.71,RU,1698061557
21,sitka,57.0531,-135.33,0.94,44,0,0.0,US,1698061417
22,zaozersk,69.4005,32.4476,-0.8,79,82,2.21,RU,1698061558
23,olonkinbyen,70.9221,-8.7187,3.22,87,100,5.19,SJ,1698061558
24,vila franca do campo,37.7167,-25.4333,21.05,99,83,4.62,PT,1698061559
25,bilibino,68.0546,166.4372,-12.89,99,100,0.18,RU,1698061560
26,port-aux-francais,-49.35,70.2167,2.26,98,99,7.26,TF,1698061560
27,alice springs,-23.7,133.8833,28.75,13,33,3.09,AU,1698061561
28,laguna,38.421,-121.4238,16.16,93,100,2.57,US,1698061561
29,coquimbo,-29.9533,-71.3436,15.85,72,75,2.06,CL,1698061562
30,celestun,20.8667,-90.4,22.67,90,100,3.87,MX,1698061563
31,college,64.8569,-147.8028,-4.96,92,100,2.57,US,1698061563
32,longyearbyen,78.2186,15.6401,-7.09,68,75,3.6,SJ,1698061564
33,san fernando de apure,7.8878,-67.4724,24.11,91,100,0.5,VE,1698061564
34,gumdag,39.2061,54.5906,22.37,35,3,4.88,TM,1698061565
35,caleta de carquin,-11.0925,-77.6267,19.83,90,88,5.09,PE,1698061565
36,adamstown,-25.066,-130.1015,22.44,76,99,5.26,PN,1698061566
37,juneau,58.3019,-134.4197,-2.0,76,75,5.14,US,1698061567
38,waitangi,-43.9535,-176.5597,9.8,70,33,7.51,NZ,1698061567
39,visakhapatnam,17.69,83.2093,30.94,51,75,1.54,IN,1698061568
40,badger,64.8,-147.5333,-5.01,93,100,2.57,US,1698061319
41,aykhal,66.0,111.5,-11.7,100,88,0.83,RU,1698061569
42,lihue,21.9789,-159.3672,23.77,86,75,6.17,US,1698061525
43,carbonear,47.7332,-53.2148,7.46,89,100,6.8,CA,1698061570
44,afaahiti,-17.75,-149.2833,24.93,85,11,6.07,PF,1698061571
45,bamenda,5.9527,10.1582,24.04,74,99,0.91,CM,1698061571
46,anadyr,64.75,177.4833,3.28,100,100,1.0,RU,1698061572
47,punta arenas,-53.15,-70.9167,5.01,87,40,3.6,CL,1698061573
48,ushuaia,-54.8,-68.3,5.81,81,0,2.06,AR,1698061573
49,jamestown,42.097,-79.2353,1.8,96,40,0.45,US,1698061371
50,tiksi,71.6872,128.8694,-11.46,98,98,3.21,RU,1698061574
51,flying fish cove,-10.4217,105.6791,24.82,88,40,1.54,CX,1698061575
52,hamilton,39.1834,-84.5333,4.96,94,100,1.54,US,1698061276
53,mount gambier,-37.8333,140.7667,11.1,47,87,2.52,AU,1698061576
54,fuglafjordur,62.244,-6.814,8.26,69,55,3.73,FO,1698061577
55,jayapura,-2.5333,140.7,27.66,89,87,3.57,ID,1698061577
56,quellon,-43.1167,-73.6167,9.11,88,28,1.88,CL,1698061579
57,kruisfontein,-34.0033,24.7314,24.78,40,65,4.57,ZA,1698061579
58,burkhardtsdorf,50.7333,12.9167,16.32,50,35,0.61,DE,1698061580
59,port alfred,-33.5906,26.891,20.1,75,68,4.47,ZA,1698061580
60,ribeira grande,38.5167,-28.7,21.22,78,20,9.26,PT,1698061581
61,iqaluit,63.7506,-68.5145,-3.15,73,100,10.8,CA,1698061582
62,latimer,30.5346,-88.8667,14.94,100,0,0.0,US,1698061582
63,masuda,34.6667,131.85,15.16,81,4,1.89,JP,1698061583
64,hawaiian paradise park,19.5933,-154.9731,23.35,95,0,2.06,US,1698061584
65,tupiza,-21.45,-65.7167,17.42,51,58,1.28,BO,1698061584
66,arraial do cabo,-22.9661,-42.0278,24.92,65,0,8.23,BR,1698061585
67,nakamura,32.9833,132.9333,15.07,90,1,1.52,JP,1698061585
68,gornopravdinsk,60.05,69.9,-0.35,64,100,4.37,RU,1698061586
69,saipan,15.1355,145.701,28.39,83,40,6.69,MP,1698061587
70,lebu,-37.6167,-73.65,10.72,75,84,4.89,CL,1698061587
71,port elizabeth,-33.918,25.5701,24.06,57,0,6.17,ZA,1698061588
72,suwayr,30.1171,40.3893,32.52,23,86,3.23,SA,1698061588
73,san patricio,28.017,-97.5169,26.92,76,81,5.17,US,1698061589
74,puerto ayora,-0.7393,-90.3518,23.37,86,80,5.02,EC,1698061590
75,uturoa,-16.7333,-151.4333,26.6,85,20,6.28,PF,1698061590
76,broken hill,-31.95,141.4333,20.44,22,45,5.12,AU,1698061591
77,atafu village,-8.5421,-172.5159,27.85,79,23,4.36,TK,1698061591
78,bredasdorp,-34.5322,20.0403,24.28,46,48,9.08,ZA,1698061592
79,grand forks,47.9417,-97.4337,8.71,96,0,5.14,US,1698061587
80,pacific grove,36.6177,-121.9166,15.61,92,71,2.68,US,1698061593
81,forster,-32.1667,152.5167,12.94,90,2,3.17,AU,1698061594
82,kill devil hills,36.0307,-75.676,11.66,69,0,4.63,US,1698061595
83,sittwe,20.15,92.9,26.69,82,88,2.8,MM,1698061595
84,katsuura,35.1333,140.3,17.62,63,35,1.35,JP,1698061596
85,qaqortoq,60.7167,-46.0333,2.39,64,94,2.62,GL,1698061597
86,new norfolk,-42.7826,147.0587,12.62,98,46,0.97,AU,1698061597
87,tomesti,47.1167,27.6833,21.74,49,0,3.6,RO,1698061598
88,ta`u,-14.2336,-169.5144,26.6,79,91,4.93,AS,1698061598
89,tura,25.5198,90.2201,21.92,94,95,0.77,IN,1698061599
90,georgetown,5.4112,100.3354,29.99,70,20,3.6,MY,1698061472
91,barra de santo antonio,-9.4047,-35.5072,27.6,66,23,5.37,BR,1698061600
92,caarapo,-22.6342,-54.8222,29.26,39,24,4.99,BR,1698061601
93,ambositra,-20.5167,47.25,27.4,36,87,1.22,MG,1698061601
94,keflavik,64.0049,-22.5624,5.24,81,40,3.09,IS,1698061602
95,constantia,44.1833,28.65,28.38,51,92,2.76,RO,1698061602
96,saint-philippe,-21.3585,55.7679,26.77,77,28,3.33,RE,1698061603
97,kapuskasing,49.4169,-82.4331,-2.0,100,0,2.57,CA,1698061604
98,alofi,-19.0595,-169.9187,22.94,88,40,2.57,NU,1698061604
99,ancud,-41.8697,-73.8203,8.45,82,40,0.79,CL,1698061605
100,inarajan village,13.2736,144.7484,28.54,92,73,7.43,GU,1698061605
101,bafq,31.6128,55.4107,28.59,13,18,2.62,IR,1698061606
102,yellowknife,62.456,-114.3525,-5.88,98,100,8.75,CA,1698061607
103,morki,56.4303,48.9947,0.48,98,100,2.86,RU,1698061608
104,ghanzi,-21.5667,21.7833,36.23,6,0,2.0,BW,1698061608
105,sisimiut,66.9395,-53.6735,-4.46,93,99,2.56,GL,1698061609
106,st. john's,47.5649,-52.7093,7.21,92,75,7.15,CA,1698061391
107,bayanaul,50.7889,75.6956,1.38,46,88,7.28,KZ,1698061610
108,itaituba,-4.2761,-55.9836,25.09,94,75,1.12,BR,1698061611
109,invercargill,-46.4,168.35,10.01,79,100,1.32,NZ,1698061437
110,novyy urengoy,66.0833,76.6333,-1.14,87,99,5.17,RU,1698061612
111,abadeh,31.1608,52.6506,21.32,16,0,4.51,IR,1698061612
112,nanfeng,23.7434,111.7959,23.7,82,53,0.92,CN,1698061613
113,enewetak,11.3474,162.3373,28.75,77,98,5.89,MH,1698061614
114,horsham,51.064,-0.3272,15.11,88,20,3.09,GB,1698061614
115,pangody,65.85,74.4859,-2.14,95,99,3.73,RU,1698061616
116,sola,-13.8833,167.55,25.37,94,100,10.29,VU,1698061616
117,znamenka,52.4167,41.4311,14.96,78,73,6.07,RU,1698061617
118,papatowai,-46.5619,169.4708,8.76,95,100,3.04,NZ,1698061617
119,west island,-12.1568,96.8225,25.99,73,40,4.12,CC,1698061618
120,vernon,50.2581,-119.2691,6.83,89,100,1.03,CA,1698061618
121,lorengau,-2.0226,147.2712,26.77,83,89,2.41,PG,1698061619
122,myanaung,18.2833,95.3167,25.28,89,86,2.03,MM,1698061620
123,kangasniemi,61.9936,26.6479,2.01,76,100,2.27,FI,1698061620
124,kristiansund,63.1115,7.732,9.36,66,75,1.03,NO,1698061621
125,mount pearl,47.5166,-52.7813,6.75,92,75,5.14,CA,1698061622
126,ilulissat,69.2167,-51.1,-5.99,68,40,4.63,GL,1698061623
127,kununurra,-15.7667,128.7333,29.99,45,3,3.09,AU,1698061623
128,nemuro,43.3236,145.575,10.61,64,24,6.76,JP,1698061624
129,touros,-5.1989,-35.4608,29.25,60,100,6.38,BR,1698061624
130,kingsland,30.8,-81.6898,19.39,83,99,2.1,US,1698061625
131,madang,-5.2246,145.7966,25.95,88,44,1.85,PG,1698061625
132,kuanda,56.3161,116.0806,-2.26,78,24,0.23,RU,1698061626
133,monrovia,6.3005,-10.7969,29.87,71,25,3.14,LR,1698061627
134,rathdrum,47.8137,-116.892,6.79,94,0,1.54,US,1698061627
135,talara,-4.5772,-81.2719,21.72,81,68,6.86,PE,1698061628
136,bu'aale,1.0833,42.5833,38.32,28,44,1.97,SO,1698061628
137,tynda,55.1667,124.7167,-6.77,95,85,0.68,RU,1698061629
138,amga,60.8953,131.9608,-5.14,98,100,1.28,RU,1698061630
139,timbuktu,16.7735,-3.0074,39.47,8,54,4.66,ML,1698061630
140,beira,-19.8436,34.8389,29.05,74,75,7.2,MZ,1698061631
141,rada tilly,-45.9333,-67.5333,9.27,71,75,1.54,AR,1698061631
142,bel ombre,-4.6167,55.4167,29.91,70,20,3.09,SC,1698061632
143,paka,4.6374,103.4368,29.99,70,20,1.03,MY,1698061633
144,nakasongola,1.3089,32.4564,27.06,60,75,0.51,UG,1698061633
145,ilovays'k,47.925,38.2024,24.1,39,61,6.97,UA,1698061634
146,utrik,11.2278,169.8474,28.03,77,100,7.78,MH,1698061634
147,aasiaat,68.7098,-52.8699,-8.17,95,100,3.79,GL,1698061635
148,hotan,37.0997,79.9269,18.26,15,2,4.42,CN,1698061636
149,puerto natales,-51.7236,-72.4875,5.39,81,39,0.75,CL,1698061636
150,sandnessjoen,66.0217,12.6316,8.06,53,0,1.54,NO,1698061637
151,zeya,53.75,127.2667,0.32,65,96,1.44,RU,1698061637
152,aswan,24.0934,32.907,38.61,15,0,3.6,EG,1698061638
153,tual,-5.6667,132.75,27.27,76,38,7.22,ID,1698061639
154,san luis de la loma,17.2706,-100.8939,24.21,85,93,1.71,MX,1698061639
155,kuala kedah,6.1,100.3,29.99,70,20,1.03,MY,1698061640
156,fortuna,40.5982,-124.1573,13.85,97,100,3.09,US,1698061640
157,nyrob,60.733,56.7202,-0.41,90,99,3.85,RU,1698061641
158,gadzhiyevo,69.2551,33.3362,1.96,61,95,6.19,RU,1698061642
159,pangyan,5.7008,125.2811,27.7,77,27,1.51,PH,1698061643
160,las vegas,36.175,-115.1372,19.38,41,0,8.23,US,1698061053
161,pasni,25.2631,63.471,27.43,74,2,6.77,PK,1698061644
162,bikenibeu village,1.3673,173.1241,26.98,89,75,0.51,KI,1698061644
163,jiaojiang,28.6803,121.4428,20.32,76,94,1.12,CN,1698061645
164,taoudenni,22.6783,-3.9836,38.37,13,91,1.55,ML,1698061646
165,tongchuanshi,35.0806,109.0897,16.08,63,1,0.35,CN,1698061646
166,queenstown,-31.8976,26.8753,25.93,23,76,8.04,ZA,1698061647
167,tolanaro,-25.0319,46.9987,29.04,65,40,5.14,MG,1698061647
168,weno,7.4515,151.8468,25.97,100,75,1.54,FM,1698061648
169,beau vallon,-20.4189,57.6953,29.13,61,40,8.23,MU,1698061649
170,zhalantun,48.0,122.7167,9.88,40,43,2.81,CN,1698061650
171,ponnani,10.767,75.9252,28.62,74,75,2.56,IN,1698061650
172,iskateley,67.6803,53.1512,-4.71,82,86,3.69,RU,1698061651
173,thompson,55.7435,-97.8558,-5.91,86,75,1.54,CA,1698061652
174,tvoroyri,61.5556,-6.8111,8.86,75,100,6.88,FO,1698061652
175,lukovit,43.2,24.1667,24.7,32,61,2.86,BG,1698061653
176,hadibu,12.65,54.0333,28.9,69,100,1.59,YE,1698061653
177,castillos,-34.1667,-53.8333,19.54,97,100,1.58,UY,1698061654
178,nueva loja,0.0847,-76.8828,21.99,93,73,0.6,EC,1698061655
179,portland,45.5234,-122.6762,13.23,92,100,0.45,US,1698061460
180,tomatlan,19.9333,-105.25,23.45,87,94,1.2,MX,1698061656
181,chonchi,-42.6128,-73.8092,8.4,83,62,1.1,CL,1698061657
182,mount isa,-20.7333,139.5,24.87,23,0,1.54,AU,1698061657
183,nabire,-3.3667,135.4833,25.95,87,63,1.47,ID,1698061658
184,isangel,-19.55,169.2667,22.89,83,100,6.53,VU,1698061659
185,archangelos,36.2149,28.1149,26.99,43,44,1.17,GR,1698061659
186,papao,-17.75,-149.55,25.82,78,13,6.29,PF,1698061660
187,nazyvayevsk,55.5698,71.3529,0.05,64,97,6.84,RU,1698061660
188,xining,36.6167,101.7667,10.37,31,0,1.75,CN,1698061661
189,colonia,50.9333,6.95,13.87,83,0,2.57,DE,1698061444
190,red bluff,40.1785,-122.2358,14.73,94,0,2.57,US,1698061662
191,isafjordur,66.0755,-23.124,3.02,87,75,0.0,IS,1698061663
192,olinda,-8.0089,-34.8553,28.85,61,75,6.17,BR,1698061526
193,kitimat,54.0524,-128.6534,4.21,63,100,0.65,CA,1698061664
194,turpan,42.9333,89.1667,19.89,19,26,2.25,CN,1698061665
195,lycksele,64.5954,18.6735,-3.07,80,75,3.6,SE,1698061666
196,port mathurin,-19.6833,63.4167,25.03,79,12,5.29,MU,1698061666
197,shimoda,34.6667,138.95,13.39,64,1,1.38,JP,1698061667
198,jolo,6.05,121.0167,26.35,85,84,0.26,PH,1698061667
199,san antonio de pale,-1.4014,5.6325,26.05,83,97,6.72,GQ,1698061668
200,lodja,-3.4833,23.4333,31.69,53,97,0.55,CD,1698061669
201,nynashamn,58.9034,17.9479,6.76,83,100,3.57,SE,1698061669
202,curumani,9.1999,-73.5427,26.21,79,92,0.66,CO,1698061670
203,gisborne,-38.6533,178.0042,10.39,74,29,2.26,NZ,1698061671
204,filingue,14.3521,3.3168,38.43,8,5,5.75,NE,1698061671
205,tsiombe,-25.3,45.4833,30.41,33,36,8.29,MG,1698061672
206,inari,68.906,27.0288,-0.89,84,29,1.6,FI,1698061672
207,griffith,41.5284,-87.4237,7.72,88,0,3.09,US,1698061673
208,vorgashor,67.5833,63.95,-9.97,93,77,2.97,RU,1698061673
209,fort mcmurray,56.7268,-111.381,-11.23,79,0,3.6,CA,1698061674
210,grenville,12.1167,-61.6167,28.03,77,20,2.84,GD,1698061675
211,whitehorse,60.7161,-135.0538,-8.57,57,100,3.09,CA,1698061675
212,mont-joli,48.5839,-68.1921,5.72,81,75,4.12,CA,1698061676
213,kibre mengist,5.8833,38.9833,22.07,66,75,2.74,ET,1698061676
214,talnakh,69.4865,88.3972,-5.44,85,97,2.21,RU,1698061677
215,mohr,54.3528,9.7167,13.25,82,75,3.6,DE,1698061678
216,udachny,66.4167,112.4,-9.11,97,95,0.58,RU,1698061678
217,mana,5.6592,-53.7767,27.49,83,90,3.27,GF,1698061679
218,fale old settlement,-9.3852,-171.2468,28.36,74,8,4.87,TK,1698061680
219,margaret river,-33.95,115.0667,12.22,63,73,5.49,AU,1698061668
220,dryden,49.7833,-92.7503,8.16,100,100,3.09,CA,1698061422
221,zhaqsy,51.9083,67.3133,0.73,59,74,6.5,KZ,1698061681
222,peace river,56.2501,-117.286,-7.83,99,100,1.54,CA,1698061682
223,yuzhno-kurilsk,44.0306,145.8556,10.51,63,71,7.64,RU,1698061683
224,nagqu,31.5,92.0,-0.08,50,82,3.12,CN,1698061684
225,urengoy,65.9667,78.3667,-1.54,77,93,4.71,RU,1698061684
226,acarau,-2.8856,-40.12,27.97,63,100,7.41,BR,1698061685
227,lata,40.1629,-8.3327,13.93,76,97,3.59,PT,1698061686
228,kudahuvadhoo,2.6708,72.8944,27.83,70,89,3.37,MV,1698061686
229,pathein,16.7833,94.7333,25.48,90,84,2.82,MM,1698061687
230,tapioszentmarton,47.3399,19.7465,21.51,58,43,2.59,HU,1698061688
231,okhotsk,59.3833,143.3,-7.67,78,41,5.91,RU,1698061688
232,keningau,5.3378,116.1602,23.2,97,55,0.86,MY,1698061689
233,kandahar,31.0,65.75,24.76,12,0,8.43,AF,1698061690
234,aioun,16.6614,-9.6149,32.52,30,100,5.16,MR,1698061690
235,antsiranana,-12.2787,49.2917,31.42,42,40,5.14,MG,1698061441
236,kralendijk,12.15,-68.2667,26.99,89,100,1.03,BQ,1698061691
237,burang,30.25,81.1667,0.21,65,84,3.58,CN,1698061692
238,benguela,-12.5763,13.4055,27.7,69,55,5.54,AO,1698061693
239,ingeniero jacobacci,-41.3427,-69.5448,10.98,72,100,5.45,AR,1698061693
240,gombi,10.1614,12.7399,36.14,13,32,3.06,NG,1698061694
241,fisterra,42.9049,-9.2629,15.97,66,16,3.96,ES,1698061695
242,princeville,45.7668,-61.2985,8.62,95,100,2.24,CA,1698061695
243,hailey,43.5196,-114.3153,9.33,76,100,2.24,US,1698061594
244,antonio enes,-16.2325,39.9086,29.68,63,94,8.76,MZ,1698061696
245,luderitz,-26.6481,15.1594,20.68,64,0,5.54,NA,1698061697
246,cockburn town,21.4612,-71.1419,26.98,78,40,2.06,TC,1698061697
247,maitum,6.0392,124.4986,26.88,81,40,1.28,PH,1698061698
248,jilib,0.4883,42.7854,35.04,38,50,6.2,SO,1698061699
249,korla,41.7597,86.1469,16.37,24,23,3.14,CN,1698061699
250,la ronge,55.1001,-105.2842,-4.86,63,40,4.63,CA,1698061700
251,ola,59.5833,151.2833,-0.04,89,99,4.94,RU,1698061700
252,nar'yan-mar,67.6713,53.087,-4.5,83,87,3.71,RU,1698061701
253,maracay,10.2469,-67.5958,22.86,86,86,0.63,VE,1698061702
254,minas de marcona,-15.2119,-75.1103,14.81,90,97,4.75,PE,1698061702
255,ust-tsilma,65.441,52.1498,0.57,75,100,5.7,RU,1698061703
256,yemel'yanovo,56.1681,92.6767,7.45,70,40,7.0,RU,1698061703
257,tatarbunary,45.8373,29.6142,24.7,34,94,4.13,UA,1698061704
258,vilhena,-12.7406,-60.1458,31.84,33,64,2.09,BR,1698061705
259,grootfontein,-19.5667,18.1167,34.76,8,0,3.6,NA,1698061705
260,carnarvon,-24.8667,113.6333,21.41,65,18,9.54,AU,1698061706
261,kaka,37.3482,59.6143,23.24,35,0,3.08,TM,1698061707
262,kavaratti,10.5669,72.642,29.04,64,96,2.17,IN,1698061708
263,codrington,-38.2667,141.9667,12.43,53,100,3.99,AU,1698061708
264,kostomuksha,64.571,30.5767,-1.03,76,26,2.46,RU,1698061709
265,petropavlovsk-kamchatsky,53.0452,158.6483,1.33,87,40,1.0,RU,1698061709
266,halifax,44.6453,-63.5724,9.0,94,75,6.69,CA,1698061309
267,donauworth,48.7,10.8,14.23,61,91,3.99,DE,1698061711
268,ulladulla,-35.35,150.4667,12.09,78,0,2.2,AU,1698061712
269,newport,51.5877,-2.9984,16.01,88,100,7.48,GB,1698061659
270,thames,-37.1333,175.5333,11.89,93,68,2.36,NZ,1698061714
271,tougue,11.4667,-11.6,27.8,59,33,1.66,GN,1698061714
272,buala,-8.145,159.5921,26.55,84,95,1.57,SB,1698061715
273,hithadhoo,-0.6,73.0833,27.35,71,64,3.93,MV,1698061715
274,lampang,18.3333,99.5,26.95,89,20,1.03,TH,1698061717
275,kodiak,57.79,-152.4072,1.73,55,0,0.0,US,1698061717
276,ostersund,63.1792,14.6357,2.25,100,100,3.13,SE,1698061719
277,dudinka,69.4058,86.1778,-5.21,95,79,2.48,RU,1698061720
278,waddan,29.1614,16.139,34.29,17,2,1.88,LY,1698061720
279,kichmengskiy gorodok,59.9816,45.7854,1.46,75,23,0.66,RU,1698061721
280,kumbo,6.2,10.6667,22.12,65,98,2.68,CM,1698061722
281,opuwo,-18.0607,13.84,35.06,6,4,2.99,NA,1698061722
282,merizo village,13.2658,144.6691,28.31,92,81,7.32,GU,1698061723
283,birao,10.2849,22.7882,37.07,24,34,2.88,CF,1698061723
284,haiku-pauwela,20.9219,-156.3051,23.91,87,75,4.12,US,1698061724
285,selfoss,63.9331,-20.9971,1.69,65,10,1.86,IS,1698061724
286,dunedin,-45.8742,170.5036,11.0,92,100,2.68,NZ,1698061725
287,rikaze,29.25,88.8833,8.5,15,25,0.67,CN,1698061726
288,susuman,62.7833,148.1667,-15.25,99,100,0.67,RU,1698061726
289,baruun-urt,46.6806,113.2792,5.73,49,5,1.15,MN,1698061727
290,kajaani,64.2273,27.7285,-1.97,86,100,4.12,FI,1698061727
291,barakani,-12.1356,44.4317,27.24,67,16,5.47,KM,1698061728
292,santa cruz,-17.8,-63.1667,28.7,54,55,7.72,BO,1698061503
293,dhangadhi,28.7079,80.5961,22.91,50,3,1.08,NP,1698061729
294,callao,-12.0667,-77.15,20.4,82,100,4.63,PE,1698061730
295,karukh,34.4811,62.5863,18.69,30,5,6.99,AF,1698061730
296,kalpi,26.1167,79.7333,27.97,30,0,1.77,IN,1698061731
297,arkhangel'sk,64.5401,40.5433,1.86,70,74,4.21,RU,1698061731
298,puerto baquerizo moreno,-0.9,-89.6,23.48,83,89,6.01,EC,1698061733
299,revda,56.801,59.9303,-0.22,79,99,4.79,RU,1698061733
300,morgan city,29.6994,-91.2068,17.0,100,100,2.06,US,1698061734
301,laminusa,5.5549,120.9136,28.89,71,45,1.13,PH,1698061735
302,kourou,5.1552,-52.6478,29.03,74,73,3.15,GF,1698061736
303,miri,4.4148,114.0089,29.08,74,40,2.06,MY,1698061737
304,jiwani,25.05,61.7417,28.04,69,2,4.93,PK,1698061738
305,bhimunipatnam,17.8833,83.4333,30.73,69,100,2.23,IN,1698061612
306,sake,-1.5736,29.045,24.42,67,98,1.47,CD,1698061739
307,happy valley-goose bay,53.3168,-60.3315,1.17,60,100,5.66,CA,1698061740
308,san jose del cabo,23.0589,-109.6977,26.52,89,5,3.16,MX,1698061740
309,sinabang,2.4803,96.3801,26.54,80,73,1.25,ID,1698061741
310,port saint john's,-31.6229,29.5448,21.62,65,75,4.83,ZA,1698061741
311,south hedland,-20.4089,118.5983,27.96,78,1,2.57,AU,1698061742
312,igarka,67.4667,86.5833,-3.77,95,50,2.39,RU,1698061743
313,ca mau,9.1769,105.15,26.0,88,80,1.17,VN,1698061743
314,viedma,-40.8135,-62.9967,13.34,60,97,6.53,AR,1698061744
315,roxas,11.5853,122.7511,26.19,86,100,2.24,PH,1698061732
316,ixtapa,20.7,-105.2,21.96,78,66,1.69,MX,1698061745
317,lagoa formosa,-18.7786,-46.4075,26.12,42,51,3.69,BR,1698061746
318,guerrero negro,27.9769,-114.0611,19.36,80,45,8.64,MX,1698061746
319,namibe,-15.1961,12.1522,25.71,63,40,7.48,AO,1698061747
320,rezh,57.37,61.4043,0.38,69,99,5.17,RU,1698061748
321,polyarnyy,69.1989,33.4478,2.09,62,94,6.2,RU,1698061748
322,bandon,51.7469,-8.7425,12.77,90,100,5.39,IE,1698061749
323,george town,5.4112,100.3354,29.99,70,20,3.6,MY,1698061514
324,pisco,-13.7,-76.2167,19.03,88,43,2.57,PE,1698061750
325,boende,-0.2167,20.8667,30.7,67,85,1.02,CD,1698061751
326,lubao,14.9167,120.55,27.84,90,100,3.27,PH,1698061751
327,urangan,-25.3,152.9,22.54,78,0,7.27,AU,1698061752
328,reggane,26.7158,0.1714,39.47,10,98,8.91,DZ,1698061752
329,cestos city,5.46,-9.5828,28.43,73,35,3.24,LR,1698061753
330,luanco,43.6152,-5.7934,14.71,88,100,3.81,ES,1698061754
331,bani walid,31.7566,13.9942,36.11,15,0,4.2,LY,1698061754
332,ebon,4.582,168.6964,28.36,75,95,1.99,MH,1698061755
333,hammerfest,70.6634,23.6821,1.25,75,100,0.0,NO,1698061755
334,sarmiento,-45.5882,-69.07,12.11,39,2,4.27,AR,1698061756
335,fort bragg,35.139,-79.006,8.23,89,0,0.0,US,1698061757
336,saldanha,-33.0117,17.9442,22.03,76,38,5.35,ZA,1698061758
337,saint-pierre,-21.3393,55.4781,26.82,65,75,3.09,RE,1698061758
338,kulhudhuffushi,6.6221,73.07,26.55,80,100,5.36,MV,1698061759
339,peddapalli,18.6167,79.3667,24.8,62,13,2.79,IN,1698061760
340,labrador city,52.9463,-66.9114,-3.05,86,100,1.54,CA,1698061760
341,ouesso,1.6136,16.0517,30.5,64,99,1.76,CG,1698061761
342,port augusta,-32.5,137.7667,23.55,14,46,9.52,AU,1698061761
343,alo,7.4178,6.7371,30.67,67,99,2.15,NG,1698061762
344,ust'-ordynskiy,52.805,104.7508,4.29,71,4,2.83,RU,1698061763
345,zhangatas,43.5667,69.75,10.03,49,90,2.68,KZ,1698061763
346,nova vicosa,-17.8919,-39.3719,26.11,61,68,3.6,BR,1698061764
347,suntar,62.1444,117.6319,-2.4,90,98,3.63,RU,1698061764
348,umm kaddadah,13.6017,26.6876,35.45,13,2,4.99,SD,1698061765
349,lindisfarne,-42.8333,147.35,12.78,87,20,3.09,AU,1698061766
350,egilsstadir,65.2653,-14.3948,3.95,93,100,3.09,IS,1698061766
351,muriti,-1.9833,32.9167,26.2,56,98,4.89,TZ,1698061767
352,guiuan,11.0333,125.7247,29.09,73,44,4.04,PH,1698061709
353,sangin,32.0728,64.8359,27.41,11,0,2.89,AF,1698061768
354,yigo village,13.5361,144.8886,27.62,89,40,7.72,GU,1698061769
355,san carlos,9.6612,-68.5827,24.07,94,98,1.21,VE,1698061770
356,ishigaki,24.3448,124.1572,25.07,73,40,4.63,JP,1698061771
357,port-vila,-17.7338,168.3219,23.78,94,100,6.17,VU,1698061772
358,sao jose da coroa grande,-8.8978,-35.1478,27.41,59,43,5.11,BR,1698061773
359,gembu,6.7,11.2667,23.49,67,100,2.05,NG,1698061773
360,ashgabat,37.95,58.3833,22.92,46,40,3.09,TM,1698061774
361,kerikeri,-35.2268,173.9474,14.95,90,93,2.63,NZ,1698061775
362,geraldton,-28.7667,114.6,17.23,67,1,7.2,AU,1698061775
363,shendi,16.6915,33.4341,38.0,21,2,2.07,SD,1698061776
364,sihanoukville,10.6093,103.5296,25.97,89,75,2.06,KH,1698061776
365,petropavlovka,50.6114,105.3196,6.68,66,28,1.2,RU,1698061777
366,upata,8.0086,-62.3989,24.81,87,98,1.56,VE,1698061778
367,posse,-14.0931,-46.3694,27.83,45,73,3.47,BR,1698061778
368,ligny-en-barrois,48.6886,5.3254,15.3,92,100,6.66,FR,1698061779
369,santo antonio,-6.3106,-35.4789,29.66,54,100,6.06,BR,1698061779
370,poronaysk,49.2167,143.1167,2.22,66,5,4.91,RU,1698061780
371,vadso,70.0744,29.7487,1.49,75,40,4.12,NO,1698061781
372,noumea,-22.2763,166.4572,20.99,82,13,5.09,NC,1698061781
373,waimea,20.0231,-155.6717,18.07,99,53,0.9,US,1698061782
374,phillip island,-38.4835,145.231,13.6,92,62,2.84,AU,1698061782
375,la sarre,48.8002,-79.1996,-0.72,90,17,1.93,CA,1698061783
376,qui nhon,13.7667,109.2333,26.15,87,73,5.57,VN,1698061784
377,sao paulo de olivenca,-3.3783,-68.8725,24.69,92,100,1.3,BR,1698061784
378,energetik,51.7445,58.7934,3.99,65,100,5.34,RU,1698061785
379,aleksandrovsk,59.158,57.5624,-0.67,72,100,4.31,RU,1698061785
380,bubaque,11.2833,-15.8333,27.94,79,82,4.55,GW,1698061786
381,shenjiamen,29.9576,122.298,21.45,71,5,4.89,CN,1698061786
382,crane,31.3974,-102.3501,20.46,72,100,9.61,US,1698061787
383,kailua-kona,19.6406,-155.9956,24.57,67,0,3.09,US,1698061788
384,lasem,-6.6922,111.4527,27.23,78,32,2.09,ID,1698061788
385,veshenskaya,49.6303,41.7334,21.27,48,70,6.8,RU,1698061789
386,yemetsk,63.4721,41.7941,1.31,69,34,2.54,RU,1698061789
387,hastings,50.8552,0.5729,15.86,30,100,8.24,GB,1698061790
388,nyurba,63.2842,118.3319,-3.6,98,91,2.32,RU,1698061791
389,narasapur,16.45,81.6667,26.6,66,93,2.29,IN,1698061791
390,as sulayyil,20.4607,45.5779,34.14,18,0,6.48,SA,1698061792
391,buarcos,40.166,-8.8768,17.59,73,84,4.87,PT,1698061793
392,isola di capo rizzuto,38.96,17.0933,26.77,64,0,4.12,IT,1698061793
393,byron bay,-28.65,153.6167,21.16,86,3,6.34,AU,1698061587
394,babayevo,59.3936,35.9371,1.57,95,100,2.06,RU,1698061794
395,broome,42.2506,-75.833,5.49,90,100,3.09,US,1698061795
396,klyuchi,52.2667,79.1667,2.02,56,84,7.65,RU,1698061796
397,yamada,39.4667,141.95,10.15,68,0,3.07,JP,1698061797
398,ghatanji,20.1333,78.3167,26.25,54,79,3.03,IN,1698061797
399,tirumullaivasal,11.2333,79.8333,28.52,67,39,4.61,IN,1698061798
400,along,28.1667,94.7667,19.75,61,89,0.93,IN,1698061798
401,guaxupe,-21.3053,-46.7128,25.64,53,55,3.43,BR,1698061624
402,antofagasta,-23.65,-70.4,16.6,81,56,3.55,CL,1698061800
403,augusto correa,-1.0217,-46.635,30.29,60,96,3.93,BR,1698061800
404,menongue,-14.6585,17.691,38.12,12,83,1.45,AO,1698061801
405,daru,-9.0763,143.2092,23.55,77,82,4.63,PG,1698061801
406,nigde,37.8333,34.75,20.1,32,26,1.92,TR,1698061802
407,shelburne,44.0787,-80.2041,0.33,93,3,2.42,CA,1698061803
408,tutoia,-2.7619,-42.2744,28.16,65,99,6.25,BR,1698061804
409,chadron,42.8294,-102.9999,2.86,87,0,1.54,US,1698061804
410,marsa alam,25.0757,34.8918,29.54,60,0,5.88,EG,1698061805
411,mahdia,35.5047,11.0622,28.97,46,0,3.29,TN,1698061805
412,iwon-up,40.3231,128.6553,12.96,69,61,2.84,KP,1698061806
413,pimentel,-6.8367,-79.9342,20.16,83,75,7.2,PE,1698061807
414,santana,-0.0583,-51.1817,30.1,70,20,2.57,BR,1698061807
415,charlottetown,46.2352,-63.1267,7.29,93,75,8.23,CA,1698061438
416,canutama,-6.5339,-64.3831,28.52,66,100,1.51,BR,1698061809
417,puttalam,8.0362,79.8283,26.69,78,55,5.8,LK,1698061809
418,abbeville,50.1,1.8333,13.98,68,100,6.39,FR,1698061810
419,necochea,-38.5473,-58.7368,14.09,91,100,5.4,AR,1698061637
420,stepnoye,51.4,46.8667,12.28,53,92,8.75,RU,1698061811
421,pionerskiy,54.9508,20.2275,12.08,77,53,8.76,RU,1698061812
422,wanning,18.8003,110.3967,25.03,93,100,5.35,CN,1698061813
423,port lincoln,-34.7333,135.8667,22.82,35,61,7.95,AU,1698061813
424,sungai raya,0.7,108.9,26.4,83,85,1.84,ID,1698061814
425,lagos,6.5833,3.75,30.59,66,96,2.53,NG,1698061803
426,wuhan,30.5833,114.2667,23.05,44,0,3.18,CN,1698061354
427,gus'-khrustal'nyy,55.6111,40.6519,6.02,98,100,1.2,RU,1698061816
428,sterling,39.0062,-77.4286,7.72,71,0,3.13,US,1698061648
429,puerto deseado,-47.7503,-65.8938,9.79,53,0,3.5,AR,1698061817
430,baiti,13.745,-14.7482,32.79,46,93,2.96,SN,1698061818
431,anloga,5.7947,0.8973,27.97,77,98,3.81,GH,1698061819
432,kirando,-7.4167,30.6,31.65,40,11,3.9,TZ,1698061819
433,aromashevo,56.8602,68.6375,0.06,63,62,5.96,RU,1698061820
434,rockport,28.0206,-97.0544,27.01,87,0,3.09,US,1698061820
435,yanbu,24.0891,38.0637,39.02,30,0,3.09,SA,1698061821
436,darley,-37.6377,144.4263,14.58,73,69,2.22,AU,1698061821
437,fomboni,-12.28,43.7425,26.76,73,23,8.47,KM,1698061822
438,al bayda',32.7627,21.7551,25.71,29,6,5.59,LY,1698061823
439,amos,48.5669,-78.1162,-1.32,88,9,1.48,CA,1698061823
440,helena valley west central,46.6629,-112.0604,6.6,88,100,3.6,US,1698061824
441,sosnovka,56.255,51.2842,0.23,98,100,3.59,RU,1698061824
442,bodaybo,57.8506,114.1933,-1.14,70,50,1.58,RU,1698061825
443,san lorenzo de esmeraldas,1.2883,-78.8369,24.81,89,82,0.8,EC,1698061826
444,santa cruz del norte,23.1539,-81.9236,25.18,72,99,5.42,CU,1698061826
445,tindouf,27.6711,-8.1474,26.25,47,40,3.09,DZ,1698061827
446,penzance,50.1186,-5.5371,17.09,100,40,6.69,GB,1698061828
447,ksar chellala,35.2122,2.3189,28.0,20,97,8.15,DZ,1698061828
448,greymouth,-42.4667,171.2,8.67,88,96,2.09,NZ,1698061829
449,kurumkan,54.3,110.3,0.94,60,48,1.38,RU,1698061830
450,jacobabad,28.281,68.4388,35.2,19,2,1.02,PK,1698061830
451,katsuren-haebaru,26.3369,127.8719,26.43,65,75,3.6,JP,1698061831
452,kodinsk,58.6881,99.1844,4.7,78,98,4.38,RU,1698061831
453,charters towers,-20.1,146.2667,21.47,69,16,2.87,AU,1698061832
454,shadrinsk,56.0852,63.6335,1.16,67,99,7.17,RU,1698061833
455,tianpeng,30.9866,103.9393,19.56,66,52,1.41,CN,1698061833
456,kachug,53.9606,105.8817,2.55,64,3,1.73,RU,1698061834
457,east london,-33.0153,27.9116,21.52,60,0,8.75,ZA,1698061835
458,mustafabad,30.8922,73.4989,27.83,40,0,1.5,PK,1698061835
459,lazaro cardenas,17.9583,-102.2,23.8,87,88,2.25,MX,1698061774
460,galliano,29.4422,-90.2992,18.33,94,100,0.0,US,1698061836
461,sutherlin,43.3901,-123.3126,15.22,61,100,1.54,US,1698061837
462,mora,11.0461,14.1401,36.36,10,23,3.62,CM,1698061837
463,sedhiou,12.7081,-15.5569,27.49,77,99,1.61,SN,1698061838
464,otjiwarongo,-20.4637,16.6477,35.28,6,0,1.27,NA,1698061839
465,tahe,52.3333,124.7333,1.27,69,62,1.45,CN,1698061839
466,palikir - national government center,6.9248,158.1611,25.41,94,40,1.54,FM,1698061840
467,laghouat,33.8,2.8651,28.38,25,78,9.19,DZ,1698061841
468,aras-asan,8.8908,126.3033,27.01,80,59,1.79,PH,1698061841
469,sergeyevka,53.88,67.4158,1.33,59,100,6.52,KZ,1698061842
470,dongcun,36.7767,121.1597,16.42,53,24,3.34,CN,1698061843
471,balkh,36.75,67.0,23.21,32,75,3.18,AF,1698061844
472,el granada,37.5027,-122.4694,17.16,95,100,3.6,US,1698061844
473,san matias,-16.3667,-58.4,36.48,26,14,4.4,BO,1698061845
474,pocito,-31.6833,-68.5833,18.63,70,79,4.82,AR,1698061845
475,oban,56.4127,-5.4706,10.21,63,95,2.95,GB,1698061846
476,akrehamn,59.2667,5.1833,10.56,93,75,2.57,NO,1698061847
477,ha'il,27.5219,41.6907,33.01,19,40,5.14,SA,1698061847
478,nouadhibou,20.931,-17.0347,23.02,81,41,5.39,MR,1698061848
479,asaita,11.5636,41.4394,37.21,22,24,5.86,ET,1698061848
480,valdivia,-39.8142,-73.2459,4.05,63,0,0.84,CL,1698061849
481,shiguai,40.7058,110.2856,9.74,25,41,0.76,CN,1698061850
482,port isabel,26.0734,-97.2086,25.02,84,0,2.57,US,1698061850
483,flin flon,54.7682,-101.865,-3.09,63,100,2.57,CA,1698061851
484,grantsville,40.5999,-112.4644,15.33,43,2,2.47,US,1698061851
485,lahad datu,5.0268,118.327,26.33,86,48,1.53,MY,1698061852
486,kenai,60.5544,-151.2583,-6.97,86,0,2.57,US,1698061853
487,levico terme,46.0129,11.3072,20.1,66,42,1.36,IT,1698061874
488,kangiwa,12.5521,3.8187,37.47,12,33,5.75,NG,1698061875
489,bozuyuk,39.9078,30.0367,26.19,21,52,2.14,TR,1698061876
490,mormugao,15.4,73.8,28.89,65,51,4.69,IN,1698061876
491,port blair,11.6667,92.75,28.02,78,40,1.03,IN,1698061877
492,bandarbeyla,9.4942,50.8122,29.65,68,70,7.23,SO,1698061877
493,macapa,0.0389,-51.0664,29.99,70,20,2.57,BR,1698061681
494,carbondale,37.7273,-89.2168,8.16,90,0,0.0,US,1698061816
495,praia da vitoria,38.7333,-27.0667,21.14,68,40,6.38,PT,1698061879
496,apaseo el grande,20.5667,-100.7,14.69,93,88,1.56,MX,1698061880
497,uberlandia,-18.9186,-48.2772,25.56,50,0,7.72,BR,1698061881
498,tazacorte,28.629,-17.9293,24.54,76,75,8.23,ES,1698061882
499,schuylkill haven,40.6307,-76.1711,7.19,78,3,2.24,US,1698061883
500,salalah,17.0151,54.0924,30.05,74,40,9.26,OM,1698061667
501,walla walla,46.0646,-118.343,14.26,80,100,5.36,US,1698061884
502,mocimboa,-11.3167,40.35,30.38,52,10,5.79,MZ,1698061884
503,cruzeiro do oeste,-23.785,-53.0733,28.76,42,87,5.48,BR,1698061885
504,suva,-18.1416,178.4415,23.71,83,100,2.06,FJ,1698061663
505,las palmas,28.4204,-14.0131,23.44,50,20,4.63,ES,1698061886
506,lira,2.235,32.9097,30.81,38,46,2.48,UG,1698061887
507,proletariy,58.4342,31.7046,3.43,90,100,2.62,RU,1698061888
508,evinayong,1.4368,10.5512,24.88,89,94,0.43,GQ,1698061888
509,arecibo,18.4724,-66.7157,29.59,92,24,1.78,PR,1698061890
510,scottburgh,-30.2867,30.7532,20.19,66,79,3.61,ZA,1698061890
511,montrose,38.4166,-108.2673,6.52,38,2,2.88,US,1698061891
512,pailon,-17.65,-62.75,29.5,26,43,6.21,BO,1698061892
513,eureka,40.8021,-124.1637,15.37,95,92,0.45,US,1698061893
514,cheremukhovo,60.3484,59.9851,-0.86,70,37,3.84,RU,1698061893
515,sao tome,0.3365,6.7273,29.02,74,75,7.2,ST,1698061894
516,lensk,60.7253,114.9278,-1.05,79,99,3.29,RU,1698061894
517,nikolayevsk-on-amure,53.1406,140.73,-1.18,65,45,1.72,RU,1698061895
518,tidjikja,18.5564,-11.4271,30.25,30,98,0.89,MR,1698061896
519,souillac,-20.5167,57.5167,29.21,61,40,8.23,MU,1698061896
520,kuragino,53.8975,92.6725,5.87,59,96,10.41,RU,1698061840
521,balabac,7.9868,117.0645,28.33,75,100,2.38,PH,1698061897
522,wajir,1.7471,40.0573,32.98,49,40,1.54,KE,1698061898
523,plastun,44.7561,136.2939,6.14,65,0,2.3,RU,1698061899
524,rio gallegos,-51.6226,-69.2181,8.03,66,0,2.57,AR,1698061900
525,alesund,62.4723,6.1549,9.63,79,75,4.12,NO,1698061817
526,padang,-0.9492,100.3543,27.03,90,82,1.0,ID,1698061901
527,kingston,17.997,-76.7936,27.53,84,40,2.06,JM,1698061269
528,sibut,5.718,19.0739,30.17,67,98,1.79,CF,1698061903
529,tamanrasset,22.785,5.5228,30.95,10,0,7.72,DZ,1698061903
530,kayangel,8.0823,134.7173,28.64,75,92,3.48,PW,1698061904
531,ouadda,8.0777,22.4007,32.19,45,38,3.13,CF,1698061904
532,el amria,35.5244,-1.0158,24.9,48,81,3.53,DZ,1698061906
533,suez,29.9737,32.5263,31.84,34,8,4.79,EG,1698061906
534,pandan,14.0453,124.1694,26.71,86,100,2.34,PH,1698061907
535,mirador,-6.3708,-44.3631,27.94,73,82,2.08,BR,1698061907
536,puerto aysen,-45.4,-72.7,10.05,74,1,1.53,CL,1698061908
537,richards bay,-28.783,32.0377,22.77,58,20,4.12,ZA,1698061909
538,dolores,-36.3132,-57.6792,17.42,86,100,5.93,AR,1698061910
539,robore,-18.3333,-59.75,35.23,26,8,3.83,BO,1698061910
540,novodvinsk,64.4165,40.8122,1.49,71,45,3.75,RU,1698061911
541,sarangani,5.4033,125.4636,29.25,71,8,3.85,PH,1698061911
542,pudasjarvi,65.3833,26.9167,-0.72,59,15,2.48,FI,1698061912
543,swakopmund,-22.6833,14.5333,24.47,75,27,4.47,NA,1698061913
544,jiangzi,28.95,89.6333,2.76,23,31,5.02,CN,1698061913
545,gedo,9.0167,37.45,19.03,64,39,0.76,ET,1698061914
546,hegang,47.4,130.3667,6.96,52,0,2.71,CN,1698061914
547,san andres,12.5847,-81.7006,25.01,100,75,2.57,CO,1698061915
548,pachino,36.7186,15.0907,23.74,66,0,4.02,IT,1698061916
549,los mochis,25.7667,-108.9667,21.4,89,79,7.94,MX,1698061916
550,ciudad bolivar,8.1222,-63.5497,26.0,82,100,2.93,VE,1698061708
551,vilyuysk,63.7553,121.6247,-5.27,98,99,1.65,RU,1698061917
552,domoni,-12.2569,44.5319,28.36,62,10,4.01,KM,1698061918
553,tucurui,-3.7661,-49.6725,31.02,57,96,2.88,BR,1698061918
554,puerto cabezas,14.0351,-83.3888,24.32,95,100,2.89,NI,1698061919
555,walvis bay,-22.9575,14.5053,24.53,46,0,5.14,NA,1698061920
556,reus,41.1561,1.1069,24.62,51,20,5.14,ES,1698061920
557,coruripe,-10.1256,-36.1756,26.9,61,44,5.87,BR,1698061921
558,thanh hoa,19.8,105.7667,24.58,84,91,1.7,VN,1698061921
559,les cayes,18.2,-73.75,27.13,78,63,1.73,HT,1698061922
560,kyzyl-mazhalyk,51.1333,90.6,7.4,51,79,2.92,RU,1698061923
561,amahai,-3.3333,128.9167,26.0,84,49,2.38,ID,1698061923
